[
    {
        "iatacode": "KVA",
        "name": "Megas Alexandros Intl",
        "country_code": "GR",
        "city": "Kavala",
        "airport_province": "Anatolikis Makedonias kai Thrakis",
        "latitude": "40.913306",
        "longitude": "24.619223",
        "gmtoffset": "2",
        "_id": -8450941177595165492
    },
    {
        "iatacode": "CFU",
        "name": "Ioannis Kapodistrias Intl",
        "country_code": "GR",
        "city": "Kerkyra",
        "airport_province": "Ionion Nison",
        "island": "Korfu",
        "latitude": "39.601944",
        "longitude": "19.911667",
        "gmtoffset": "2",
        "_id": -1394141346275932171
    },
    {
        "iatacode": "SKG",
        "name": "Makedonia",
        "country_code": "GR",
        "city": "Thessaloniki",
        "airport_province": "Kentrikis Makedonias",
        "latitude": "40.519725",
        "longitude": "22.97095",
        "gmtoffset": "2",
        "_id": 434087797867153289
    },
    {
        "iatacode": "CHQ",
        "name": "Souda",
        "country_code": "GR",
        "city": "Chania",
        "airport_province": "Kritis",
        "island": "Crete",
        "latitude": "35.531747",
        "longitude": "24.149678",
        "gmtoffset": "2",
        "_id": -7345174978752294075
    },
    {
        "iatacode": "SMI",
        "name": "Samos",
        "country_code": "GR",
        "island": "Samos",
        "latitude": "37.689999",
        "longitude": "26.911667",
        "gmtoffset": "2",
        "_id": 2211533162425394337
    },
    {
        "iatacode": "KGS",
        "name": "Kos",
        "country_code": "GR",
        "island": "Kos",
        "latitude": "36.793335",
        "longitude": "27.091667",
        "gmtoffset": "2",
        "_id": 6778216172712582079
    },
    {
        "iatacode": "MJT",
        "name": "Mitilini",
        "country_code": "GR",
        "city": "Mytilini",
        "airport_province": "Boreioy Aigaioy",
        "island": "Lesbos",
        "latitude": "39.056667",
        "longitude": "26.598333",
        "gmtoffset": "2",
        "_id": 86193235539584136
    },
    {
        "iatacode": "GPA",
        "name": "Araxos",
        "country_code": "GR",
        "city": "Patra",
        "airport_province": "Dytikis Elladas",
        "latitude": "38.151111",
        "longitude": "21.425556",
        "gmtoffset": "2",
        "_id": -7763556777176377026
    },
    {
        "iatacode": "ZTH",
        "name": "Dionysios Solomos",
        "country_code": "GR",
        "island": "Zakynthos",
        "latitude": "37.750853",
        "longitude": "20.88425",
        "gmtoffset": "2",
        "_id": -3922688181367881099
    },
    {
        "iatacode": "JIK",
        "name": "Ikaria",
        "country_code": "GR",
        "island": "Ikaria",
        "latitude": "37.682717",
        "longitude": "26.347061",
        "gmtoffset": "2",
        "_id": 5404293676674759791
    },
    {
        "iatacode": "JSY",
        "name": "Syros",
        "country_code": "GR",
        "city": "Ermoupoli",
        "airport_province": "Notioy Aigaioy",
        "island": "Syros",
        "latitude": "37.422792",
        "longitude": "24.950936",
        "gmtoffset": "2",
        "_id": -4411140263792850135
    },
    {
        "iatacode": "GOH",
        "name": "Nuuk",
        "country_code": "GL",
        "city": "Nuuk",
        "airport_province": "Greenland",
        "island": "Greenland",
        "latitude": "64.190922",
        "longitude": "-51.678064",
        "gmtoffset": "-3",
        "_id": -5089269353055714592
    },
    {
        "iatacode": "GND",
        "name": "Point Salines Intl",
        "country_code": "WG",
        "city": "Saint George's",
        "airport_province": "Grenada",
        "island": "Grenada",
        "latitude": "12.004247",
        "longitude": "-61.786192",
        "gmtoffset": "-4",
        "_id": 1374891543355675321
    },
    {
        "iatacode": "PTP",
        "name": "Le Raizet",
        "country_code": "GUAD",
        "city": "Basse-Terre",
        "airport_province": "Guadeloupe",
        "island": "Basse-Terre",
        "latitude": "16.265306",
        "longitude": "-61.531806",
        "gmtoffset": "-4",
        "_id": -3731130179596941910
    },
    {
        "iatacode": "GUM",
        "name": "Guam Intl",
        "country_code": "GUAM",
        "city": "Hagåtña",
        "airport_province": "Guam",
        "island": "Guam",
        "latitude": "13.48345",
        "longitude": "144.795983",
        "gmtoffset": "10",
        "_id": -5381450196296135447
    },
    {
        "iatacode": "GUA",
        "name": "La Aurora",
        "country_code": "GCA",
        "city": "Ciudad de Guatemala",
        "airport_province": "Guatemala",
        "latitude": "14.583272",
        "longitude": "-90.527475",
        "gmtoffset": "-6",
        "_id": 3487908359432383356
    },
    {
        "iatacode": "GCI",
        "name": "Guernsey",
        "country_code": "GBG",
        "city": "Saint Peter Port",
        "airport_province": "Guernsey",
        "island": "Guernsey",
        "latitude": "49.434956",
        "longitude": "-2.601969",
        "gmtoffset": "0",
        "_id": -7428303137496959081
    },
    {
        "iatacode": "CKY",
        "name": "Conakry",
        "country_code": "RG",
        "city": "Conakry",
        "airport_province": "Guinea",
        "latitude": "9.576889",
        "longitude": "-13.611961",
        "gmtoffset": "0",
        "_id": -5620859086278366572
    },
    {
        "iatacode": "OXB",
        "name": "Osvaldo Vieira Intl",
        "country_code": "GUB",
        "city": "Bissau",
        "airport_province": "Guinea-Bissau",
        "latitude": "11.8947",
        "longitude": "-15.6536",
        "gmtoffset": "0",
        "_id": 378308518376332312
    },
    {
        "iatacode": "GEO",
        "name": "Cheddi Jagan Intl",
        "country_code": "GUY",
        "city": "Georgetown",
        "airport_province": "Guyana",
        "latitude": "6.498553",
        "longitude": "-58.254119",
        "gmtoffset": "-4",
        "_id": -1864831363509019444
    },
    {
        "iatacode": "PAP",
        "name": "Toussaint Louverture Intl",
        "country_code": "RH",
        "city": "Port-au-Prince",
        "airport_province": "Haiti",
        "island": "Hispaniola",
        "latitude": "18.58005",
        "longitude": "-72.292542",
        "gmtoffset": "-5",
        "_id": -2588727666820810440
    },
    {
        "iatacode": "TGU",
        "name": "Toncontin Intl",
        "country_code": "HN",
        "city": "Tegucigalpa",
        "airport_province": "Francisco Morazán",
        "latitude": "14.060883",
        "longitude": "-87.217197",
        "gmtoffset": "-6",
        "_id": -2186789860430155966
    },
    {
        "iatacode": "HKG",
        "name": "Hong Kong Intl",
        "country_code": "HK",
        "city": "Hong Kong",
        "airport_province": "Hong Kong",
        "latitude": "22.308919",
        "longitude": "113.914603",
        "gmtoffset": "8",
        "_id": 3923957889564029139
    },
    {
        "iatacode": "BUD",
        "name": "Ferihegy",
        "country_code": "H",
        "city": "Budapest",
        "airport_province": "Budapest",
        "latitude": "47.436933",
        "longitude": "19.255592",
        "gmtoffset": "1",
        "_id": -4620427747028146984
    },
    {
        "iatacode": "KEF",
        "name": "Keflavik International Airport",
        "country_code": "IS",
        "city": "Keflavik",
        "airport_province": "Iceland",
        "island": "Iceland",
        "latitude": "63.985",
        "longitude": "-22.605556",
        "gmtoffset": "0",
        "_id": 3175279346633749945
    },
    {
        "iatacode": "SXR",
        "name": "Srinagar",
        "country_code": "IND",
        "city": "Srinagar",
        "airport_province": "Jammu and Kashmir",
        "latitude": "33.987139",
        "longitude": "74.77425",
        "gmtoffset": "5.5",
        "_id": -6147905047002649724
    },
    {
        "iatacode": "STV",
        "name": "Surat",
        "country_code": "IND",
        "city": "Surat",
        "airport_province": "Gujarat",
        "latitude": "21.114061",
        "longitude": "72.741792",
        "gmtoffset": "5.5",
        "_id": 7014450961783154601
    },
    {
        "iatacode": "DED",
        "name": "Dehradun",
        "country_code": "IND",
        "city": "Dehra Dun",
        "airport_province": "Uttarakhand",
        "latitude": "30.189689",
        "longitude": "78.180256",
        "gmtoffset": "5.5",
        "_id": 3185325206565692275
    },
    {
        "iatacode": "DEL",
        "name": "Indira Gandhi Intl",
        "country_code": "IND",
        "city": "Delhi",
        "airport_province": "Delhi",
        "latitude": "28.5665",
        "longitude": "77.103088",
        "gmtoffset": "5.5",
        "_id": -9165929106221071214
    },
    {
        "iatacode": "LKO",
        "name": "Lucknow",
        "country_code": "IND",
        "city": "Lucknow",
        "airport_province": "Uttar Pradesh",
        "latitude": "26.760594",
        "longitude": "80.889339",
        "gmtoffset": "5.5",
        "_id": 6508374667830321731
    },
    {
        "iatacode": "CJB",
        "name": "Coimbatore",
        "country_code": "IND",
        "city": "Coimbatore",
        "airport_province": "Tamil Nadu",
        "latitude": "11.030031",
        "longitude": "77.043383",
        "gmtoffset": "5.5",
        "_id": 4900407689274457687
    },
    {
        "iatacode": "COK",
        "name": "Cochin",
        "country_code": "IND",
        "city": "Kochi",
        "airport_province": "Kerala",
        "latitude": "10.155556",
        "longitude": "76.391389",
        "gmtoffset": "5.5",
        "_id": 8557242661222837991
    },
    {
        "iatacode": "BHO",
        "name": "Bhopal",
        "country_code": "IND",
        "city": "Bhopal",
        "airport_province": "Madhya Pradesh",
        "latitude": "23.287467",
        "longitude": "77.337375",
        "gmtoffset": "5.5",
        "_id": -7786791198104878879
    },
    {
        "iatacode": "BLR",
        "name": "Bangalore",
        "country_code": "IND",
        "city": "Bangalore",
        "airport_province": "Karnataka",
        "latitude": "12.949986",
        "longitude": "77.668206",
        "gmtoffset": "5.5",
        "_id": 1501864231441813104
    },
    {
        "iatacode": "TRZ",
        "name": "Trichy",
        "country_code": "IND",
        "city": "Tiruchirappalli",
        "airport_province": "Tamil Nadu",
        "latitude": "10.765364",
        "longitude": "78.709722",
        "gmtoffset": "5.5",
        "_id": 496740915872255996
    },
    {
        "iatacode": "TRV",
        "name": "Thiruvananthapuram Intl",
        "country_code": "IND",
        "city": "Trivandrum",
        "airport_province": "Kerala",
        "latitude": "8.482122",
        "longitude": "76.920114",
        "gmtoffset": "5.5",
        "_id": -5429597119376452111
    },
    {
        "iatacode": "AJL",
        "name": "Aizawl",
        "country_code": "IND",
        "city": "Aijal",
        "airport_province": "Mizoram",
        "latitude": "23.746603",
        "longitude": "92.802767",
        "gmtoffset": "5.5",
        "_id": 2383516233888760588
    },
    {
        "iatacode": "CCJ",
        "name": "Calicut",
        "country_code": "IND",
        "city": "Kozhikode",
        "airport_province": "Kerala",
        "latitude": "11.136839",
        "longitude": "75.9553",
        "gmtoffset": "5.5",
        "_id": -766503498291653441
    },
    {
        "iatacode": "CCU",
        "name": "Netaji Subhash Chandra Bose Intl",
        "country_code": "IND",
        "city": "Kolkata",
        "airport_province": "West Bengal",
        "latitude": "22.654739",
        "longitude": "88.446722",
        "gmtoffset": "5.5",
        "_id": -2200554689087723088
    },
    {
        "iatacode": "BBI",
        "name": "Bhubaneshwar",
        "country_code": "IND",
        "city": "Bhubaneswar",
        "airport_province": "Odisha",
        "latitude": "20.244364",
        "longitude": "85.817781",
        "gmtoffset": "5.5",
        "_id": -5337164832385521055
    },
    {
        "iatacode": "VGA",
        "name": "Vijayawada",
        "country_code": "IND",
        "city": "Vijayawada",
        "airport_province": "Andhra Pradesh",
        "latitude": "16.530433",
        "longitude": "80.796847",
        "gmtoffset": "5.5",
        "_id": -4203722458483633652
    },
    {
        "iatacode": "VNS",
        "name": "Varanasi",
        "country_code": "IND",
        "city": "Varanasi",
        "airport_province": "Uttar Pradesh",
        "latitude": "25.452358",
        "longitude": "82.859342",
        "gmtoffset": "5.5",
        "_id": 3773159958125516918
    },
    {
        "iatacode": "DIU",
        "name": "Diu Airport",
        "country_code": "IND",
        "city": "Daman",
        "airport_province": "Daman and Diu",
        "latitude": "20.7131",
        "longitude": "70.9211",
        "gmtoffset": "5.5",
        "_id": -4942743420764036330
    },
    {
        "iatacode": "VTZ",
        "name": "Visakhapatnam",
        "country_code": "IND",
        "city": "Visakhapatnam",
        "airport_province": "Andhra Pradesh",
        "latitude": "17.721167",
        "longitude": "83.224483",
        "gmtoffset": "5.5",
        "_id": -6087288111587009722
    },
    {
        "iatacode": "NAG",
        "name": "Dr Ambedkar Intl",
        "country_code": "IND",
        "city": "Nagpur",
        "airport_province": "Maharashtra",
        "latitude": "21.092192",
        "longitude": "79.047183",
        "gmtoffset": "5.5",
        "_id": -6643721990688772617
    },
    {
        "iatacode": "GOP",
        "name": "Gorakhpur Airport",
        "country_code": "IND",
        "city": "Gorakhpur",
        "airport_province": "Uttar Pradesh",
        "latitude": "26.739708",
        "longitude": "83.449708",
        "gmtoffset": "5.5",
        "_id": 3614162551187908471
    },
    {
        "iatacode": "GAU",
        "name": "Lokpriya Gopinath Bordoloi International Airport",
        "country_code": "IND",
        "city": "Gauhati",
        "airport_province": "Assam",
        "latitude": "26.106092",
        "longitude": "91.585939",
        "gmtoffset": "5.5",
        "_id": 8514192430708946890
    },
    {
        "iatacode": "PNQ",
        "name": "Pune",
        "country_code": "IND",
        "city": "Pune",
        "airport_province": "Maharashtra",
        "latitude": "18.582111",
        "longitude": "73.919697",
        "gmtoffset": "5.5",
        "_id": 1841672496294787886
    },
    {
        "iatacode": "GOI",
        "name": "Goa",
        "country_code": "IND",
        "city": "Panaji",
        "airport_province": "Goa",
        "latitude": "15.380833",
        "longitude": "73.831422",
        "gmtoffset": "5.5",
        "_id": -1410801025514550441
    },
    {
        "iatacode": "IMF",
        "name": "Imphal",
        "country_code": "IND",
        "city": "Imphal",
        "airport_province": "Manipur",
        "latitude": "24.75995",
        "longitude": "93.896697",
        "gmtoffset": "5.5",
        "_id": -8495660912261255562
    },
    {
        "iatacode": "IDR",
        "name": "Devi Ahilyabai Holkar",
        "country_code": "IND",
        "city": "Indore",
        "airport_province": "Madhya Pradesh",
        "latitude": "22.721786",
        "longitude": "75.801086",
        "gmtoffset": "5.5",
        "_id": -73393168947954983
    },
    {
        "iatacode": "RAJ",
        "name": "Rajkot",
        "country_code": "IND",
        "city": "Rajkot",
        "airport_province": "Gujarat",
        "latitude": "22.309183",
        "longitude": "70.779525",
        "gmtoffset": "5.5",
        "_id": 5540183553577409196
    },
    {
        "iatacode": "HYD",
        "name": "Hyderabad",
        "country_code": "IND",
        "city": "Hyderabad",
        "airport_province": "Telangana",
        "latitude": "17.453117",
        "longitude": "78.467586",
        "gmtoffset": "5.5",
        "_id": 3647027181894756766
    },
    {
        "iatacode": "RPR",
        "name": "Raipur",
        "country_code": "IND",
        "city": "Raipur",
        "airport_province": "Chhattisgarh",
        "latitude": "21.180406",
        "longitude": "81.738753",
        "gmtoffset": "5.5",
        "_id": 8997305871604345261
    },
    {
        "iatacode": "JLR",
        "name": "Jabalpur",
        "country_code": "IND",
        "city": "Jabalpur",
        "airport_province": "Madhya Pradesh",
        "latitude": "23.177817",
        "longitude": "80.052047",
        "gmtoffset": "5.5",
        "_id": 1855629869922697404
    },
    {
        "iatacode": "RJA",
        "name": "Rajahmundry",
        "country_code": "IND",
        "city": "Rajahmundry",
        "airport_province": "Andhra Pradesh",
        "latitude": "17.110361",
        "longitude": "81.818208",
        "gmtoffset": "5.5",
        "_id": -3228497233757787295
    },
    {
        "iatacode": "JGA",
        "name": "Jamnagar",
        "country_code": "IND",
        "city": "Jamnagar",
        "airport_province": "Gujarat",
        "latitude": "22.465522",
        "longitude": "70.012556",
        "gmtoffset": "5.5",
        "_id": -5702725158954350643
    },
    {
        "iatacode": "JDH",
        "name": "Jodhpur",
        "country_code": "IND",
        "city": "Jodhpur",
        "airport_province": "Rajasthan",
        "latitude": "26.251092",
        "longitude": "73.048869",
        "gmtoffset": "5.5",
        "_id": 6932413934348796150
    },
    {
        "iatacode": "JAI",
        "name": "Jaipur",
        "country_code": "IND",
        "city": "Jaipur",
        "airport_province": "Rajasthan",
        "latitude": "26.824192",
        "longitude": "75.812161",
        "gmtoffset": "5.5",
        "_id": 969275150926955997
    },
    {
        "iatacode": "IXZ",
        "name": "Port Blair",
        "country_code": "IND",
        "city": "Port Blair",
        "airport_province": "Andaman and Nicobar Islands",
        "island": "South Andaman Island",
        "latitude": "11.641161",
        "longitude": "92.729744",
        "gmtoffset": "5.5",
        "_id": 1629624829735963195
    },
    {
        "iatacode": "IXR",
        "name": "Birsa Munda",
        "country_code": "IND",
        "city": "Ranchi",
        "airport_province": "Jharkhand",
        "latitude": "23.31425",
        "longitude": "85.321675",
        "gmtoffset": "5.5",
        "_id": 4873259880825547688
    },
    {
        "iatacode": "IXU",
        "name": "Aurangabad",
        "country_code": "IND",
        "city": "Aurangabad",
        "airport_province": "Maharashtra",
        "latitude": "19.862728",
        "longitude": "75.398114",
        "gmtoffset": "5.5",
        "_id": 3311418639924548091
    },
    {
        "iatacode": "IXC",
        "name": "Chandigarh",
        "country_code": "IND",
        "city": "Chandigarh",
        "airport_province": "Chandigarh",
        "latitude": "30.673469",
        "longitude": "76.788542",
        "gmtoffset": "5.5",
        "_id": 3754013497696272198
    },
    {
        "iatacode": "IXA",
        "name": "Agartala",
        "country_code": "IND",
        "city": "Agartala",
        "airport_province": "Tripura",
        "latitude": "23.886978",
        "longitude": "91.24045",
        "gmtoffset": "5.5",
        "_id": 2346176434996516388
    },
    {
        "iatacode": "IXM",
        "name": "Madurai",
        "country_code": "IND",
        "city": "Madurai",
        "airport_province": "Tamil Nadu",
        "latitude": "9.834508",
        "longitude": "78.093378",
        "gmtoffset": "5.5",
        "_id": 5566809080771842071
    },
    {
        "iatacode": "IXJ",
        "name": "Jammu",
        "country_code": "IND",
        "city": "Jammu",
        "airport_province": "Jammu and Kashmir",
        "latitude": "32.689142",
        "longitude": "74.837389",
        "gmtoffset": "5.5",
        "_id": -1607638583637960823
    },
    {
        "iatacode": "ATQ",
        "name": "Amritsar",
        "country_code": "IND",
        "city": "Amritsar",
        "airport_province": "Punjab",
        "latitude": "31.709594",
        "longitude": "74.797264",
        "gmtoffset": "5.5",
        "_id": 3279312865217256763
    },
    {
        "iatacode": "MAA",
        "name": "Chennai Intl",
        "country_code": "IND",
        "city": "Chennai",
        "airport_province": "Tamil Nadu",
        "latitude": "12.994414",
        "longitude": "80.180517",
        "gmtoffset": "5.5",
        "_id": 2775380240471037149
    },
    {
        "iatacode": "BOM",
        "name": "Chhatrapati Shivaji Intl",
        "country_code": "IND",
        "city": "Mumbai",
        "airport_province": "Maharashtra",
        "latitude": "19.088686",
        "longitude": "72.867919",
        "gmtoffset": "5.5",
        "_id": -8107626758771881347
    },
    {
        "iatacode": "AMD",
        "name": "Ahmedabad",
        "country_code": "IND",
        "city": "Ahmadabad",
        "airport_province": "Gujarat",
        "latitude": "23.077242",
        "longitude": "72.63465",
        "gmtoffset": "5.5",
        "_id": 5147781130871852558
    },
    {
        "iatacode": "IXD",
        "name": "Allahabad",
        "country_code": "IND",
        "city": "Allahabad",
        "airport_province": "Uttar Pradesh",
        "latitude": "25.440064",
        "longitude": "81.733872",
        "gmtoffset": "5.5",
        "_id": 4040060623214098942
    },
    {
        "iatacode": "BDJ",
        "name": "Syamsudin Noor",
        "country_code": "RI",
        "city": "Bandjarmasin",
        "airport_province": "Kalimantan Selatan",
        "island": "Borneo",
        "latitude": "-3.442356",
        "longitude": "114.762553",
        "gmtoffset": "8",
        "_id": 619085472260071581
    },
    {
        "iatacode": "KDI",
        "name": "Wolter Monginsidi",
        "country_code": "RI",
        "city": "Kendari",
        "airport_province": "Sulawesi Tenggara",
        "island": "Sulawesi",
        "latitude": "-4.081608",
        "longitude": "122.418231",
        "gmtoffset": "8",
        "_id": -7319641072543486844
    },
    {
        "iatacode": "TKG",
        "name": "Radin Inten II (Branti) Airport",
        "country_code": "RI",
        "city": "Bandar Lampung",
        "airport_province": "Lampung",
        "island": "Sumatra",
        "latitude": "-5.242339",
        "longitude": "105.178939",
        "gmtoffset": "7",
        "_id": -6312190529989250890
    },
    {
        "iatacode": "BTH",
        "name": "Hang Nadim",
        "country_code": "RI",
        "city": "Batam",
        "airport_province": "Kepulauan Riau",
        "island": "Batam",
        "latitude": "1.121028",
        "longitude": "104.118753",
        "gmtoffset": "7",
        "_id": -5101528653581330410
    },
    {
        "iatacode": "KOE",
        "name": "El Tari",
        "country_code": "RI",
        "city": "Kupang",
        "airport_province": "Nusa Tenggara Timur",
        "island": "Timor",
        "latitude": "-10.171583",
        "longitude": "123.671136",
        "gmtoffset": "8",
        "_id": -8343524391071218448
    },
    {
        "iatacode": "TTE",
        "name": "Sultan Babullah",
        "country_code": "RI",
        "city": "Ternate",
        "airport_province": "Maluku Utara",
        "island": "Ternate",
        "latitude": "0.831414",
        "longitude": "127.381486",
        "gmtoffset": "9",
        "_id": 4728353651653848169
    },
    {
        "iatacode": "BKS",
        "name": "Fatmawati Soekarno",
        "country_code": "RI",
        "city": "Bengkulu",
        "airport_province": "Bengkulu",
        "island": "Sumatra",
        "latitude": "-3.8637",
        "longitude": "102.339036",
        "gmtoffset": "7",
        "_id": 7253893889902922150
    },
    {
        "iatacode": "AMQ",
        "name": "Pattimura",
        "country_code": "RI",
        "city": "Ambon",
        "airport_province": "Maluku",
        "island": "Ambon",
        "latitude": "-3.710264",
        "longitude": "128.089136",
        "gmtoffset": "9",
        "_id": 459980015467250262
    },
    {
        "iatacode": "BPN",
        "name": "Sepinggan",
        "country_code": "RI",
        "city": "Balikpapan",
        "airport_province": "Kalimantan Timur",
        "island": "Borneo",
        "latitude": "-1.268272",
        "longitude": "116.894478",
        "gmtoffset": "8",
        "_id": -129237541190600329
    },
    {
        "iatacode": "MLG",
        "name": "Abdul Rachman Saleh",
        "country_code": "RI",
        "city": "Malang",
        "airport_province": "Jawa Timur",
        "island": "Java",
        "latitude": "-7.926556",
        "longitude": "112.714514",
        "gmtoffset": "7",
        "_id": 6144736999783958948
    },
    {
        "iatacode": "MDC",
        "name": "Sam Ratulangi",
        "country_code": "RI",
        "city": "Manado",
        "airport_province": "Sulawesi Utara",
        "island": "Sulawesi",
        "latitude": "1.549447",
        "longitude": "124.925878",
        "gmtoffset": "8",
        "_id": 5337801752521639581
    },
    {
        "iatacode": "DJJ",
        "name": "Sentani",
        "country_code": "RI",
        "city": "Jayapura",
        "airport_province": "Papua",
        "island": "New Guinea",
        "latitude": "-2.576953",
        "longitude": "140.516372",
        "gmtoffset": "9",
        "_id": -2953182681846936258
    },
    {
        "iatacode": "LOP",
        "name": "Lombok International Airport",
        "country_code": "RI",
        "city": "Mataram",
        "airport_province": "Nusa Tenggara Barat",
        "island": "Lombok",
        "latitude": "-8.7573222",
        "longitude": "116.276675",
        "gmtoffset": "8",
        "_id": -4802231183052037674
    },
    {
        "iatacode": "SRG",
        "name": "Achmad Yani",
        "country_code": "RI",
        "city": "Semarang",
        "airport_province": "Jawa Tengah",
        "island": "Java",
        "latitude": "-6.971447",
        "longitude": "110.374122",
        "gmtoffset": "7",
        "_id": -1731376369480370524
    },
    {
        "iatacode": "DJB",
        "name": "Sultan Thaha",
        "country_code": "RI",
        "city": "Jambi",
        "airport_province": "Jambi",
        "island": "Sumatra",
        "latitude": "-1.638017",
        "longitude": "103.644378",
        "gmtoffset": "7",
        "_id": -7473033241631033294
    },
    {
        "iatacode": "CGK",
        "name": "Soekarno Hatta Intl",
        "country_code": "RI",
        "city": "Jakarta",
        "airport_province": "DKI Jakarta",
        "island": "Java",
        "latitude": "-6.125567",
        "longitude": "106.655897",
        "gmtoffset": "7",
        "_id": -337073390631849480
    },
    {
        "iatacode": "BDO",
        "name": "Husein Sastranegara",
        "country_code": "RI",
        "city": "Bandung",
        "airport_province": "Jawa Barat",
        "island": "Java",
        "latitude": "-6.900625",
        "longitude": "107.576294",
        "gmtoffset": "7",
        "_id": -2367609150399379481
    },
    {
        "iatacode": "UPG",
        "name": "Hasanuddin",
        "country_code": "RI",
        "city": "Makassar",
        "airport_province": "Sulawesi Selatan",
        "island": "Sulawesi",
        "latitude": "-5.061631",
        "longitude": "119.554042",
        "gmtoffset": "8",
        "_id": -8021654418717444193
    },
    {
        "iatacode": "DPS",
        "name": "Bali Ngurah Rai",
        "country_code": "RI",
        "city": "Denpasar",
        "airport_province": "Bali",
        "island": "Bali",
        "latitude": "-8.748169",
        "longitude": "115.167172",
        "gmtoffset": "8",
        "_id": -1479082997311747610
    },
    {
        "iatacode": "PLW",
        "name": "Mutiara",
        "country_code": "RI",
        "city": "Palu",
        "airport_province": "Sulawesi Tengah",
        "island": "Sulawesi",
        "latitude": "-0.918542",
        "longitude": "119.909642",
        "gmtoffset": "8",
        "_id": -362613502303005044
    },
    {
        "iatacode": "PGK",
        "name": "Depati Amir",
        "country_code": "RI",
        "city": "Pangkal Pinang",
        "airport_province": "Kepulauan Bangka Belitung",
        "island": "Bangka",
        "latitude": "-2.1622",
        "longitude": "106.139064",
        "gmtoffset": "7",
        "_id": 4927522997336457194
    },
    {
        "iatacode": "PKY",
        "name": "Tjilik Riwut",
        "country_code": "RI",
        "city": "Palangkaraya",
        "airport_province": "Kalimantan Tengah",
        "island": "Borneo",
        "latitude": "-2.225128",
        "longitude": "113.942661",
        "gmtoffset": "7",
        "_id": -5777393235338226471
    },
    {
        "iatacode": "PLM",
        "name": "Sultan Mahmud Badaruddin Ii",
        "country_code": "RI",
        "city": "Palembang",
        "airport_province": "Sumatera Selatan",
        "island": "Sumatra",
        "latitude": "-2.89825",
        "longitude": "104.699903",
        "gmtoffset": "7",
        "_id": 7613904647474577299
    },
    {
        "iatacode": "GTO",
        "name": "Jalaluddin",
        "country_code": "RI",
        "city": "Gorontalo",
        "airport_province": "Gorontalo",
        "island": "Sulawesi",
        "latitude": "0.637119",
        "longitude": "122.849858",
        "gmtoffset": "8",
        "_id": 2377291320924395157
    },
    {
        "iatacode": "PNK",
        "name": "Supadio",
        "country_code": "RI",
        "city": "Pontianak",
        "airport_province": "Kalimantan Barat",
        "island": "Borneo",
        "latitude": "-0.150711",
        "longitude": "109.403892",
        "gmtoffset": "7",
        "_id": 6609084024335982958
    },
    {
        "iatacode": "PKU",
        "name": "Sultan Syarif Kasim Ii",
        "country_code": "RI",
        "city": "Pekanbaru",
        "airport_province": "Riau",
        "island": "Sumatra",
        "latitude": "0.460786",
        "longitude": "101.444539",
        "gmtoffset": "7",
        "_id": 4599813881557861381
    },
    {
        "iatacode": "PDG",
        "name": "Tabing",
        "country_code": "RI",
        "city": "Padang",
        "airport_province": "Sumatera Barat",
        "island": "Sumatra",
        "latitude": "-0.874989",
        "longitude": "100.351881",
        "gmtoffset": "7",
        "_id": -4082835974637989043
    },
    {
        "iatacode": "JOG",
        "name": "Adi Sutjipto",
        "country_code": "RI",
        "city": "Yogyakarta",
        "airport_province": "DI Yogyakarta",
        "island": "Java",
        "latitude": "-7.788181",
        "longitude": "110.431758",
        "gmtoffset": "7",
        "_id": 8331996589476290637
    },
    {
        "iatacode": "BTJ",
        "name": "Sultan Iskandarmuda",
        "country_code": "RI",
        "city": "Banda Aceh",
        "airport_province": "Aceh",
        "island": "Sumatra",
        "latitude": "5.523522",
        "longitude": "95.420372",
        "gmtoffset": "7",
        "_id": -2005592378978565415
    },
    {
        "iatacode": "MES",
        "name": "Polonia",
        "country_code": "RI",
        "city": "Medan",
        "airport_province": "Sumatera Utara",
        "island": "Sumatra",
        "latitude": "3.558056",
        "longitude": "98.671722",
        "gmtoffset": "7",
        "_id": 6877767382078060215
    },
    {
        "iatacode": "SUB",
        "name": "Juanda",
        "country_code": "RI",
        "city": "Surabaya",
        "airport_province": "Jawa Timur",
        "island": "Java",
        "latitude": "-7.379831",
        "longitude": "112.786858",
        "gmtoffset": "7",
        "_id": -1643539004987919452
    },
    {
        "iatacode": "AWZ",
        "name": "Ahwaz",
        "country_code": "IR",
        "city": "Ahvaz",
        "airport_province": "Khuzestan",
        "latitude": "31.337431",
        "longitude": "48.76195",
        "gmtoffset": "3.5",
        "_id": 5236166465890459764
    },
    {
        "iatacode": "ABD",
        "name": "Abadan",
        "country_code": "IR",
        "city": "Abadan",
        "airport_province": "Khuzestan",
        "latitude": "30.371111",
        "longitude": "48.228333",
        "gmtoffset": "3.5",
        "_id": -1637364023692008090
    },
    {
        "iatacode": "HEA",
        "name": "Herat",
        "country_code": "AFG",
        "city": "Herat",
        "airport_province": "Afghanistan",
        "latitude": "34.210017",
        "longitude": "62.2283",
        "gmtoffset": "5",
        "_id": 1162495359269674561
    },
    {
        "iatacode": "KBL",
        "name": "Kabul Intl",
        "country_code": "AFG",
        "city": "Kabul",
        "airport_province": "Afghanistan",
        "latitude": "34.565853",
        "longitude": "69.212328",
        "gmtoffset": "5",
        "_id": 7866056899466117260
    },
    {
        "iatacode": "TIA",
        "name": "Tirana Rinas",
        "country_code": "AL",
        "city": "Tirana",
        "airport_province": "Albania",
        "latitude": "41.414742",
        "longitude": "19.720561",
        "gmtoffset": "1",
        "_id": 950457474429347493
    },
    {
        "iatacode": "TEE",
        "name": "Cheikh Larbi Tebessi",
        "country_code": "DZ",
        "city": "Tébessa",
        "airport_province": "Algeria",
        "latitude": "35.431611",
        "longitude": "8.120717",
        "gmtoffset": "1",
        "_id": 4642278080561005947
    },
    {
        "iatacode": "BLJ",
        "name": "Batna Airport",
        "country_code": "DZ",
        "city": "Batna",
        "airport_province": "Algeria",
        "latitude": "35.752106",
        "longitude": "6.308589",
        "gmtoffset": "1",
        "_id": 2268192335584564622
    },
    {
        "iatacode": "BJA",
        "name": "Soummam",
        "country_code": "DZ",
        "city": "Bejaïa",
        "airport_province": "Algeria",
        "latitude": "36.711997",
        "longitude": "5.069922",
        "gmtoffset": "1",
        "_id": -3138749804841418006
    },
    {
        "iatacode": "TMR",
        "name": "Tamanrasset",
        "country_code": "DZ",
        "city": "Tamanrasset",
        "airport_province": "Algeria",
        "latitude": "22.811461",
        "longitude": "5.451075",
        "gmtoffset": "1",
        "_id": 865548976499312933
    },
    {
        "iatacode": "BSK",
        "name": "Biskra",
        "country_code": "DZ",
        "city": "Biskra",
        "airport_province": "Algeria",
        "latitude": "34.793289",
        "longitude": "5.738231",
        "gmtoffset": "1",
        "_id": -7903922788609107357
    },
    {
        "iatacode": "CZL",
        "name": "Mohamed Boudiaf Intl",
        "country_code": "DZ",
        "city": "Constantine",
        "airport_province": "Algeria",
        "latitude": "36.276028",
        "longitude": "6.620386",
        "gmtoffset": "1",
        "_id": -4360926460754361317
    },
    {
        "iatacode": "QSF",
        "name": "Ain Arnat Airport",
        "country_code": "DZ",
        "city": "Sétif",
        "airport_province": "Algeria",
        "latitude": "36.1781",
        "longitude": "5.32449",
        "gmtoffset": "1",
        "_id": -5648237861122195391
    },
    {
        "iatacode": "ORN",
        "name": "Es Senia",
        "country_code": "DZ",
        "city": "Oran",
        "airport_province": "Algeria",
        "latitude": "35.623858",
        "longitude": "-0.621183",
        "gmtoffset": "1",
        "_id": -1498427906615100274
    },
    {
        "iatacode": "GHA",
        "name": "Noumerat",
        "country_code": "DZ",
        "city": "Ghardaïa",
        "airport_province": "Algeria",
        "latitude": "32.384106",
        "longitude": "3.794114",
        "gmtoffset": "1",
        "_id": -9208470634936824081
    },
    {
        "iatacode": "AAE",
        "name": "Annaba",
        "country_code": "DZ",
        "city": "Annaba",
        "airport_province": "Algeria",
        "latitude": "36.822225",
        "longitude": "7.809167",
        "gmtoffset": "1",
        "_id": -2674621307540714603
    },
    {
        "iatacode": "ALG",
        "name": "Houari Boumediene",
        "country_code": "DZ",
        "city": "Algiers",
        "airport_province": "Algeria",
        "latitude": "36.691014",
        "longitude": "3.215408",
        "gmtoffset": "1",
        "_id": 7348752363867432861
    },
    {
        "iatacode": "TLM",
        "name": "Zenata",
        "country_code": "DZ",
        "city": "Tlemcen",
        "airport_province": "Algeria",
        "latitude": "35.016667",
        "longitude": "-1.45",
        "gmtoffset": "1",
        "_id": 7599407309911830782
    },
    {
        "iatacode": "PPG",
        "name": "Pago Pago Intl",
        "country_code": "AMSA",
        "city": "Pago Pago",
        "airport_province": "American Samoa",
        "island": "Tutuila",
        "latitude": "-14.2794",
        "longitude": "-170.7006",
        "gmtoffset": "-11",
        "_id": 6240992559432021422
    },
    {
        "iatacode": "VPE",
        "name": "Ondjiva Pereira Airport",
        "country_code": "ANG",
        "city": "Ngiva",
        "airport_province": "Cunene",
        "latitude": "-17.043464",
        "longitude": "15.683822",
        "gmtoffset": "1",
        "_id": -630539083608074063
    },
    {
        "iatacode": "SDD",
        "name": "Lubango",
        "country_code": "ANG",
        "city": "Lubango",
        "airport_province": "Huíla",
        "latitude": "-14.924733",
        "longitude": "13.575022",
        "gmtoffset": "1",
        "_id": 5981742875256750978
    },
    {
        "iatacode": "CAB",
        "name": "Cabinda",
        "country_code": "ANG",
        "city": "Cabinda",
        "airport_province": "Cabinda",
        "latitude": "-5.596992",
        "longitude": "12.188353",
        "gmtoffset": "1",
        "_id": -3364254561414910415
    },
    {
        "iatacode": "SPP",
        "name": "Menongue",
        "country_code": "ANG",
        "city": "Menongue",
        "airport_province": "Cuando Cubango",
        "latitude": "-14.657583",
        "longitude": "17.719833",
        "gmtoffset": "1",
        "_id": 2311947421726438156
    },
    {
        "iatacode": "LAD",
        "name": "Luanda 4 De Fevereiro",
        "country_code": "ANG",
        "city": "Luanda",
        "airport_province": "Luanda",
        "latitude": "-8.858375",
        "longitude": "13.231178",
        "gmtoffset": "1",
        "_id": 3993395100506472596
    },
    {
        "iatacode": "NOV",
        "name": "Huambo",
        "country_code": "ANG",
        "city": "Huambo",
        "airport_province": "Huambo",
        "latitude": "-12.808878",
        "longitude": "15.760547",
        "gmtoffset": "1",
        "_id": 8763188936596016288
    },
    {
        "iatacode": "AXA",
        "name": "Wallblake",
        "country_code": "AXA",
        "city": "The Valley",
        "airport_province": "Anguilla",
        "island": "Anguilla",
        "latitude": "18.204834",
        "longitude": "-63.055084",
        "gmtoffset": "-4",
        "_id": 3764777052256142742
    },
    {
        "iatacode": "ANU",
        "name": "V C Bird Intl",
        "country_code": "AG",
        "city": "St. John's",
        "airport_province": "Antigua and Barbuda",
        "island": "Antigua",
        "latitude": "17.136749",
        "longitude": "-61.792667",
        "gmtoffset": "-4",
        "_id": -5268694103002987502
    },
    {
        "iatacode": "IRJ",
        "name": "La Rioja",
        "country_code": "RA",
        "city": "La Rioja",
        "airport_province": "La Rioja",
        "latitude": "-29.381636",
        "longitude": "-66.795839",
        "gmtoffset": "-3",
        "_id": -891741124867891762
    },
    {
        "iatacode": "JUJ",
        "name": "Jujuy",
        "country_code": "RA",
        "city": "San Salvador de Jujuy",
        "airport_province": "Jujuy",
        "latitude": "-24.392778",
        "longitude": "-65.097778",
        "gmtoffset": "-3",
        "_id": -1853088894433362045
    },
    {
        "iatacode": "BHI",
        "name": "Comandante Espora",
        "country_code": "RA",
        "city": "Bahía Blanca",
        "airport_province": "Buenos Aires",
        "latitude": "-38.724967",
        "longitude": "-62.169317",
        "gmtoffset": "-3",
        "_id": 3567052701832466943
    },
    {
        "iatacode": "TUC",
        "name": "Teniente Benjamin Matienzo",
        "country_code": "RA",
        "city": "San Miguel de Tucumán",
        "airport_province": "Tucumán",
        "latitude": "-26.840861",
        "longitude": "-65.104944",
        "gmtoffset": "-3",
        "_id": 8003058803886291553
    },
    {
        "iatacode": "LUQ",
        "name": "San Luis",
        "country_code": "RA",
        "city": "San Luis",
        "airport_province": "San Luis",
        "latitude": "-33.273192",
        "longitude": "-66.356422",
        "gmtoffset": "-3",
        "_id": 4314819907836604494
    },
    {
        "iatacode": "SDE",
        "name": "Santiago del Estero",
        "country_code": "RA",
        "city": "Santiago del Estero",
        "airport_province": "Santiago de Estero",
        "latitude": "-27.765617",
        "longitude": "-64.310122",
        "gmtoffset": "-3",
        "_id": 3493659120353121670
    },
    {
        "iatacode": "SFN",
        "name": "Sauce Viejo",
        "country_code": "RA",
        "city": "Santa Fe",
        "airport_province": "Santa Fe",
        "latitude": "-31.711666",
        "longitude": "-60.811668",
        "gmtoffset": "-3",
        "_id": 224312755026574899
    },
    {
        "iatacode": "CNQ",
        "name": "Corrientes",
        "country_code": "RA",
        "city": "Corrientes",
        "airport_province": "Corrientes",
        "latitude": "-27.445503",
        "longitude": "-58.761864",
        "gmtoffset": "-3",
        "_id": -736587911033712581
    },
    {
        "iatacode": "NQN",
        "name": "Presidente Peron",
        "country_code": "RA",
        "city": "Neuquén",
        "airport_province": "Neuquén",
        "latitude": "-38.949",
        "longitude": "-68.155711",
        "gmtoffset": "-3",
        "_id": -2109129023544644927
    },
    {
        "iatacode": "SLA",
        "name": "Salta",
        "country_code": "RA",
        "city": "Salta",
        "airport_province": "Salta",
        "latitude": "-24.855978",
        "longitude": "-65.486169",
        "gmtoffset": "-3",
        "_id": -8635301822208153883
    },
    {
        "iatacode": "AEP",
        "name": "Aeroparque Jorge Newbery",
        "country_code": "RA",
        "city": "Buenos Aires",
        "airport_province": "Distrito Federal",
        "latitude": "-34.559175",
        "longitude": "-58.415606",
        "gmtoffset": "-3",
        "_id": -4300913300629565054
    },
    {
        "iatacode": "EZE",
        "name": "Ministro Pistarini",
        "country_code": "RA",
        "city": "Buenos Aires",
        "airport_province": "Distrito Federal",
        "latitude": "-34.822222",
        "longitude": "-58.535833",
        "gmtoffset": "-3",
        "_id": -7452542604680478196
    },
    {
        "iatacode": "USH",
        "name": "Ushuaia Malvinas Argentinas",
        "country_code": "RA",
        "city": "Ushuaia",
        "airport_province": "Tierra del Fuego",
        "latitude": "-54.843278",
        "longitude": "-68.29575",
        "gmtoffset": "-3",
        "_id": 5717340173811665719
    },
    {
        "iatacode": "FMA",
        "name": "Formosa",
        "country_code": "RA",
        "city": "Formosa",
        "airport_province": "Formosa",
        "latitude": "-26.212722",
        "longitude": "-58.228111",
        "gmtoffset": "-3",
        "_id": 3621145444813458845
    },
    {
        "iatacode": "PSS",
        "name": "Posadas",
        "country_code": "RA",
        "city": "Posadas",
        "airport_province": "Misiones",
        "latitude": "-27.385839",
        "longitude": "-55.970728",
        "gmtoffset": "-3",
        "_id": 7932215781120862621
    },
    {
        "iatacode": "ROS",
        "name": "Rosario",
        "country_code": "RA",
        "city": "Rosario",
        "airport_province": "Santa Fe",
        "latitude": "-32.903611",
        "longitude": "-60.785",
        "gmtoffset": "-3",
        "_id": -5358629866349003786
    },
    {
        "iatacode": "RES",
        "name": "Resistencia",
        "country_code": "RA",
        "city": "Resistencia",
        "airport_province": "Chaco",
        "latitude": "-27.449986",
        "longitude": "-59.056125",
        "gmtoffset": "-3",
        "_id": -5213405237971063068
    },
    {
        "iatacode": "RGL",
        "name": "Rio Gallegos",
        "country_code": "RA",
        "city": "Río Gallegos",
        "airport_province": "Santa Cruz",
        "latitude": "-51.608875",
        "longitude": "-69.312636",
        "gmtoffset": "-3",
        "_id": 8239765339228882640
    },
    {
        "iatacode": "CRD",
        "name": "Comodoro Rivadavia",
        "country_code": "RA",
        "city": "Comodoro Rivadavia",
        "airport_province": "Chubut",
        "latitude": "-45.785347",
        "longitude": "-67.465508",
        "gmtoffset": "-3",
        "_id": 5579488923865529402
    },
    {
        "iatacode": "MDQ",
        "name": "Mar Del Plata",
        "country_code": "RA",
        "city": "Mar del Plata",
        "airport_province": "Buenos Aires",
        "latitude": "-37.934167",
        "longitude": "-57.573333",
        "gmtoffset": "-3",
        "_id": 374082553889894254
    },
    {
        "iatacode": "MDZ",
        "name": "El Plumerillo",
        "country_code": "RA",
        "city": "Mendoza",
        "airport_province": "Mendoza",
        "latitude": "-32.831717",
        "longitude": "-68.792856",
        "gmtoffset": "-3",
        "_id": 1009937791930147504
    },
    {
        "iatacode": "COR",
        "name": "Ambrosio L V Taravella",
        "country_code": "RA",
        "city": "Córdoba",
        "airport_province": "Córdoba",
        "latitude": "-31.323619",
        "longitude": "-64.207953",
        "gmtoffset": "-3",
        "_id": 4569811014255568108
    },
    {
        "iatacode": "EVN",
        "name": "Zvartnots",
        "country_code": "ARM",
        "city": "Yerevan",
        "airport_province": "Armenia",
        "latitude": "40.147275",
        "longitude": "44.395881",
        "gmtoffset": "4",
        "_id": -4866747692070319609
    },
    {
        "iatacode": "AUA",
        "name": "Reina Beatrix Intl",
        "country_code": "ARU",
        "city": "Oranjestad",
        "airport_province": "Aruba",
        "island": "Aruba",
        "latitude": "12.501389",
        "longitude": "-70.015221",
        "gmtoffset": "-4",
        "_id": -3283284208001184684
    },
    {
        "iatacode": "MEL",
        "name": "Melbourne Intl",
        "country_code": "AUS",
        "city": "Melbourne",
        "airport_province": "Victoria",
        "latitude": "-37.673333",
        "longitude": "144.843333",
        "gmtoffset": "10",
        "_id": -6901520864194162142
    },
    {
        "iatacode": "SYD",
        "name": "Sydney Intl",
        "country_code": "AUS",
        "city": "Sydney",
        "airport_province": "New South Wales",
        "latitude": "-33.946111",
        "longitude": "151.177222",
        "gmtoffset": "10",
        "_id": 4118039671773039248
    },
    {
        "iatacode": "CNS",
        "name": "Cairns Intl",
        "country_code": "AUS",
        "city": "Cairns",
        "airport_province": "Queensland",
        "latitude": "-16.885833",
        "longitude": "145.755278",
        "gmtoffset": "10",
        "_id": 5774503245315706219
    },
    {
        "iatacode": "TSV",
        "name": "Townsville",
        "country_code": "AUS",
        "city": "Townsville",
        "airport_province": "Queensland",
        "latitude": "-19.2525",
        "longitude": "146.765278",
        "gmtoffset": "10",
        "_id": 6258142766189688002
    },
    {
        "iatacode": "BNE",
        "name": "Brisbane Intl",
        "country_code": "AUS",
        "city": "Brisbane",
        "airport_province": "Queensland",
        "latitude": "-27.384167",
        "longitude": "153.1175",
        "gmtoffset": "10",
        "_id": 8233800404352988022
    },
    {
        "iatacode": "CBR",
        "name": "Canberra",
        "country_code": "AUS",
        "city": "Canberra",
        "airport_province": "Australia Capital Territory",
        "latitude": "-35.306944",
        "longitude": "149.195",
        "gmtoffset": "10",
        "_id": -3518474358351892797
    },
    {
        "iatacode": "ADL",
        "name": "Adelaide Intl",
        "country_code": "AUS",
        "city": "Adelaide",
        "airport_province": "South Australia",
        "latitude": "-34.945",
        "longitude": "138.530556",
        "gmtoffset": "9.5",
        "_id": -3209385716442842893
    },
    {
        "iatacode": "NTL",
        "name": "Newcastle Airport",
        "country_code": "AUS",
        "city": "Newcastle",
        "airport_province": "New South Wales",
        "latitude": "-32.78",
        "longitude": "151.83",
        "gmtoffset": "10",
        "_id": 6767159637956196640
    },
    {
        "iatacode": "DRW",
        "name": "Darwin Intl",
        "country_code": "AUS",
        "city": "Darwin",
        "airport_province": "Northern Territory",
        "latitude": "-12.4083333",
        "longitude": "130.87266",
        "gmtoffset": "9.5",
        "_id": 535481054979953484
    },
    {
        "iatacode": "PER",
        "name": "Perth Intl",
        "country_code": "AUS",
        "city": "Perth",
        "airport_province": "Western Australia",
        "latitude": "-31.940278",
        "longitude": "115.966944",
        "gmtoffset": "8",
        "_id": 7620849766873274980
    },
    {
        "iatacode": "HBA",
        "name": "Hobart",
        "country_code": "AUS",
        "city": "Hobart",
        "airport_province": "Tasmania",
        "island": "Tasmania",
        "latitude": "-42.836111",
        "longitude": "147.510278",
        "gmtoffset": "10",
        "_id": 8120671596159058361
    },
    {
        "iatacode": "SZG",
        "name": "Salzburg",
        "country_code": "A",
        "city": "Salzburg",
        "airport_province": "Salzburg",
        "latitude": "47.793304",
        "longitude": "13.004333",
        "gmtoffset": "1",
        "_id": -3220348568216279424
    },
    {
        "iatacode": "LNZ",
        "name": "Linz",
        "country_code": "A",
        "city": "Linz",
        "airport_province": "Oberösterreich",
        "latitude": "48.233219",
        "longitude": "14.187511",
        "gmtoffset": "1",
        "_id": -216167807665069926
    },
    {
        "iatacode": "INN",
        "name": "Innsbruck",
        "country_code": "A",
        "city": "Innsbruck",
        "airport_province": "Tirol",
        "latitude": "47.260219",
        "longitude": "11.343964",
        "gmtoffset": "1",
        "_id": -4440504812456252501
    },
    {
        "iatacode": "VIE",
        "name": "Schwechat",
        "country_code": "A",
        "city": "Wien",
        "airport_province": "Wien",
        "latitude": "48.110278",
        "longitude": "16.569722",
        "gmtoffset": "1",
        "_id": -8951566862255842185
    },
    {
        "iatacode": "GRZ",
        "name": "Graz",
        "country_code": "A",
        "city": "Graz",
        "airport_province": "Steiermark",
        "latitude": "46.991067",
        "longitude": "15.439628",
        "gmtoffset": "1",
        "_id": 8403698184723994491
    },
    {
        "iatacode": "KLU",
        "name": "Woerthersee International Airport",
        "country_code": "A",
        "city": "Klagenfurt",
        "airport_province": "Kärnten",
        "latitude": "46.642514",
        "longitude": "14.337739",
        "gmtoffset": "1",
        "_id": 994142345151921537
    },
    {
        "iatacode": "GYD",
        "name": "Heydar Aliyev",
        "country_code": "AZ",
        "city": "Baku",
        "airport_province": "Azerbaijan",
        "latitude": "40.4675",
        "longitude": "50.046667",
        "gmtoffset": "4",
        "_id": 7562534466647784894
    },
    {
        "iatacode": "NAS",
        "name": "Lynden Pindling Intl",
        "country_code": "BS",
        "city": "Nassau",
        "airport_province": "Bahamas",
        "island": "New Providence",
        "latitude": "25.038958",
        "longitude": "-77.466231",
        "gmtoffset": "-5",
        "_id": -2265955733383014047
    },
    {
        "iatacode": "BAH",
        "name": "Bahrain Intl",
        "country_code": "BRN",
        "city": "Al Manāmah",
        "airport_province": "Bahrain",
        "island": "Bahrain",
        "latitude": "26.270834",
        "longitude": "50.63361",
        "gmtoffset": "3",
        "_id": 3021812101865105090
    },
    {
        "iatacode": "DAC",
        "name": "Zia Intl",
        "country_code": "BD",
        "city": "Dhaka",
        "airport_province": "Dhaka",
        "latitude": "23.843333",
        "longitude": "90.397781",
        "gmtoffset": "6",
        "_id": -4716271446903760013
    },
    {
        "iatacode": "CGP",
        "name": "Shah Amanat Intl",
        "country_code": "BD",
        "city": "Chittagong",
        "airport_province": "Chittagong",
        "latitude": "22.249611",
        "longitude": "91.813286",
        "gmtoffset": "6",
        "_id": -6564845020849073391
    },
    {
        "iatacode": "BGI",
        "name": "Grantley Adams Intl",
        "country_code": "BDS",
        "city": "Bridgetown",
        "airport_province": "Barbados",
        "island": "Barbados",
        "latitude": "13.074603",
        "longitude": "-59.492456",
        "gmtoffset": "-4",
        "_id": 3480786002055942576
    },
    {
        "iatacode": "MSQ",
        "name": "Minsk National",
        "country_code": "BY",
        "city": "Minsk",
        "airport_province": "Minsk City",
        "latitude": "53.882469",
        "longitude": "28.030731",
        "gmtoffset": "3",
        "_id": -8101344995608366615
    },
    {
        "iatacode": "ANR",
        "name": "Deurne",
        "country_code": "B",
        "city": "Antwerpen",
        "airport_province": "Antwerpen",
        "latitude": "51.189444",
        "longitude": "4.460278",
        "gmtoffset": "1",
        "_id": -730837094586723383
    },
    {
        "iatacode": "CRL",
        "name": "Brussels South",
        "country_code": "B",
        "city": "Charleroi",
        "airport_province": "Hainaut",
        "latitude": "50.459197",
        "longitude": "4.453817",
        "gmtoffset": "1",
        "_id": 4864067680532483118
    },
    {
        "iatacode": "LGG",
        "name": "Aéroport de Liège",
        "country_code": "B",
        "city": "Liège",
        "airport_province": "Liège",
        "latitude": "50.6375",
        "longitude": "5.4433",
        "gmtoffset": "1",
        "_id": 3666739522705993894
    },
    {
        "iatacode": "BRU",
        "name": "Brussels Natl",
        "country_code": "B",
        "city": "Bruxelles",
        "airport_province": "Bruxelles",
        "latitude": "50.901389",
        "longitude": "4.484444",
        "gmtoffset": "1",
        "_id": 5235259019429836721
    },
    {
        "iatacode": "BZE",
        "name": "Philip S W Goldson Intl",
        "country_code": "BZ",
        "city": "Belize City",
        "airport_province": "Belize",
        "latitude": "17.539144",
        "longitude": "-88.308203",
        "gmtoffset": "-6",
        "_id": 4685324654392884718
    },
    {
        "iatacode": "COO",
        "name": "Cadjehoun",
        "country_code": "BEN",
        "city": "Cotonou",
        "airport_province": "Benin",
        "latitude": "6.357228",
        "longitude": "2.384353",
        "gmtoffset": "1",
        "_id": 2546819880214950776
    },
    {
        "iatacode": "BDA",
        "name": "Bermuda Intl",
        "country_code": "BERM",
        "city": "Hamilton",
        "airport_province": "Bermuda",
        "island": "Grand Bermuda",
        "latitude": "32.364042",
        "longitude": "-64.678703",
        "gmtoffset": "-4",
        "_id": -6454505521473625013
    },
    {
        "iatacode": "PBH",
        "name": "Paro",
        "country_code": "BHT",
        "city": "Thimphu",
        "airport_province": "Bhutan",
        "latitude": "27.403192",
        "longitude": "89.424606",
        "gmtoffset": "6",
        "_id": 6521446854095781836
    },
    {
        "iatacode": "CIJ",
        "name": "Heroes Del Acre",
        "country_code": "BOL",
        "city": "Cobija",
        "airport_province": "Pando",
        "latitude": "-11.040436",
        "longitude": "-68.782972",
        "gmtoffset": "-4",
        "_id": -5196092537843184883
    },
    {
        "iatacode": "LPB",
        "name": "El Alto Intl",
        "country_code": "BOL",
        "city": "La Paz",
        "airport_province": "La Paz",
        "latitude": "-16.513339",
        "longitude": "-68.192256",
        "gmtoffset": "-4",
        "_id": -8986788983120714887
    },
    {
        "iatacode": "VVI",
        "name": "Viru Viru Intl",
        "country_code": "BOL",
        "city": "Santa Cruz de la Sierra",
        "airport_province": "Santa Cruz",
        "latitude": "-17.644756",
        "longitude": "-63.135364",
        "gmtoffset": "-4",
        "_id": -9159980916879595682
    },
    {
        "iatacode": "SRE",
        "name": "Juana Azurduy De Padilla",
        "country_code": "BOL",
        "city": "Sucre",
        "airport_province": "Chuquisaca",
        "latitude": "-19.007083",
        "longitude": "-65.288747",
        "gmtoffset": "-4",
        "_id": -8411757674571959893
    },
    {
        "iatacode": "TDD",
        "name": "Tte Av Jorge Henrich Arauz",
        "country_code": "BOL",
        "city": "Trinidad",
        "airport_province": "Beni",
        "latitude": "-14.818739",
        "longitude": "-64.918019",
        "gmtoffset": "-4",
        "_id": 1391824627477409131
    },
    {
        "iatacode": "TJA",
        "name": "Capitan Oriel Lea Plaza",
        "country_code": "BOL",
        "city": "Tarija",
        "airport_province": "Tarija",
        "latitude": "-21.555736",
        "longitude": "-64.701325",
        "gmtoffset": "-4",
        "_id": -634158854014827545
    },
    {
        "iatacode": "CBB",
        "name": "Jorge Wilsterman",
        "country_code": "BOL",
        "city": "Cochabamba",
        "airport_province": "Cochabamba",
        "latitude": "-17.421058",
        "longitude": "-66.177114",
        "gmtoffset": "-4",
        "_id": 1448324444580569555
    },
    {
        "iatacode": "SJJ",
        "name": "Sarajevo",
        "country_code": "BIH",
        "city": "Sarajevo",
        "airport_province": "Federacija Bosne i Hercegovine",
        "latitude": "43.824583",
        "longitude": "18.331467",
        "gmtoffset": "1",
        "_id": 1463969122956116289
    },
    {
        "iatacode": "GBE",
        "name": "Sir Seretse Khama Intl",
        "country_code": "RB",
        "city": "Gaborone",
        "airport_province": "Botswana",
        "latitude": "-24.555225",
        "longitude": "25.918208",
        "gmtoffset": "2",
        "_id": -8228561328625396219
    },
    {
        "iatacode": "REC",
        "name": "Guararapes Gilberto Freyre Intl",
        "country_code": "BR",
        "city": "Recife",
        "airport_province": "Pernambuco",
        "latitude": "-8.126794",
        "longitude": "-34.923039",
        "gmtoffset": "-3",
        "_id": -8399758924177448381
    },
    {
        "iatacode": "BSB",
        "name": "Presidente Juscelino Kubitschek",
        "country_code": "BR",
        "city": "Brasília",
        "airport_province": "Distrito Federal",
        "latitude": "-15.8711",
        "longitude": "-47.918625",
        "gmtoffset": "-3",
        "_id": -7581444707850893357
    },
    {
        "iatacode": "BVB",
        "name": "Boa Vista",
        "country_code": "BR",
        "city": "Boa Vista",
        "airport_province": "Roraima",
        "latitude": "2.846311",
        "longitude": "-60.690069",
        "gmtoffset": "-4",
        "_id": -5317436300578690005
    },
    {
        "iatacode": "RBR",
        "name": "Rio Branco",
        "country_code": "BR",
        "city": "Rio Branco",
        "airport_province": "Acre",
        "latitude": "-9.87",
        "longitude": "-67.89",
        "gmtoffset": "-5",
        "_id": 3587116033197584076
    },
    {
        "iatacode": "UDI",
        "name": "Ten Cel Av Cesar Bombonato",
        "country_code": "BR",
        "city": "Uberlândia",
        "airport_province": "Minas Gerais",
        "latitude": "-18.882844",
        "longitude": "-48.225594",
        "gmtoffset": "-3",
        "_id": 6818669042988265664
    },
    {
        "iatacode": "MCZ",
        "name": "Zumbi Dos Palmares",
        "country_code": "BR",
        "city": "Maceió",
        "airport_province": "Alagoas",
        "latitude": "-9.510808",
        "longitude": "-35.791678",
        "gmtoffset": "-3",
        "_id": -3729587958190422940
    },
    {
        "iatacode": "MCP",
        "name": "Macapa",
        "country_code": "BR",
        "city": "Macapá",
        "airport_province": "Amapá",
        "latitude": "0.050664",
        "longitude": "-51.072178",
        "gmtoffset": "-3",
        "_id": 891810803169936000
    },
    {
        "iatacode": "MAO",
        "name": "Eduardo Gomes Intl",
        "country_code": "BR",
        "city": "Manaus",
        "airport_province": "Amazonas",
        "latitude": "-3.038611",
        "longitude": "-60.049721",
        "gmtoffset": "-4",
        "_id": 3519315790676618303
    },
    {
        "iatacode": "VIX",
        "name": "Goiabeiras",
        "country_code": "BR",
        "city": "Vitória",
        "airport_province": "Espírito Santo",
        "latitude": "-20.258056",
        "longitude": "-40.286389",
        "gmtoffset": "-3",
        "_id": -6885543541448169917
    },
    {
        "iatacode": "CWB",
        "name": "Afonso Pena",
        "country_code": "BR",
        "city": "Curitiba",
        "airport_province": "Paraná",
        "latitude": "-25.528475",
        "longitude": "-49.175775",
        "gmtoffset": "-3",
        "_id": 1435586304235237443
    },
    {
        "iatacode": "STM",
        "name": "Santarem",
        "country_code": "BR",
        "city": "Santarém",
        "airport_province": "Pará",
        "latitude": "-2.422431",
        "longitude": "-54.792789",
        "gmtoffset": "-3",
        "_id": -8646572661747930472
    },
    {
        "iatacode": "LDB",
        "name": "Londrina",
        "country_code": "BR",
        "city": "Londrina",
        "airport_province": "Paraná",
        "latitude": "-23.333625",
        "longitude": "-51.130072",
        "gmtoffset": "-3",
        "_id": -6226841987724441419
    },
    {
        "iatacode": "CGB",
        "name": "Marechal Rondon",
        "country_code": "BR",
        "city": "Cuiabá",
        "airport_province": "Mato Grosso",
        "latitude": "-15.652931",
        "longitude": "-56.116719",
        "gmtoffset": "-4",
        "_id": -2972459538918499268
    },
    {
        "iatacode": "CGR",
        "name": "Campo Grande",
        "country_code": "BR",
        "city": "Campo Grande",
        "airport_province": "Mato Grosso do Sul",
        "latitude": "-20.468667",
        "longitude": "-54.6725",
        "gmtoffset": "-4",
        "_id": -6672588324390956920
    },
    {
        "iatacode": "CGH",
        "name": "Congonhas",
        "country_code": "BR",
        "city": "São Paulo",
        "airport_province": "São Paulo",
        "latitude": "-23.626692",
        "longitude": "-46.655375",
        "gmtoffset": "-3",
        "_id": 3164844769252682063
    },
    {
        "iatacode": "SDU",
        "name": "Santos Dumont",
        "country_code": "BR",
        "city": "Rio de Janeiro",
        "airport_province": "Rio de Janeiro",
        "latitude": "-22.910461",
        "longitude": "-43.163133",
        "gmtoffset": "-3",
        "_id": 5396489208151174212
    },
    {
        "iatacode": "SSA",
        "name": "Deputado Luis Eduardo Magalhaes",
        "country_code": "BR",
        "city": "Salvador",
        "airport_province": "Bahia",
        "latitude": "-12.910994",
        "longitude": "-38.331044",
        "gmtoffset": "-3",
        "_id": 3800809762601639459
    },
    {
        "iatacode": "CNF",
        "name": "Tancredo Neves Intl",
        "country_code": "BR",
        "city": "Belo Horizonte",
        "airport_province": "Minas Gerais",
        "latitude": "-19.63375",
        "longitude": "-43.968856",
        "gmtoffset": "-3",
        "_id": -1748667197237920550
    },
    {
        "iatacode": "SLZ",
        "name": "Marechal Cunha Machado Intl",
        "country_code": "BR",
        "city": "São Luís",
        "airport_province": "Maranhão",
        "latitude": "-2.585361",
        "longitude": "-44.234139",
        "gmtoffset": "-3",
        "_id": 7461382748495330279
    },
    {
        "iatacode": "CPQ",
        "name": "Amarais Airport",
        "country_code": "BR",
        "city": "Campinas",
        "airport_province": "São Paulo",
        "latitude": "-22.8592",
        "longitude": "-47.1082",
        "gmtoffset": "-3",
        "_id": 5028234455857958884
    },
    {
        "iatacode": "VCP",
        "name": "Viracopos",
        "country_code": "BR",
        "city": "Campinas",
        "airport_province": "São Paulo",
        "latitude": "-23.0075",
        "longitude": "-47.134444",
        "gmtoffset": "-3",
        "_id": -86605499520678410
    },
    {
        "iatacode": "AJU",
        "name": "Santa Maria",
        "country_code": "BR",
        "city": "Aracaju",
        "airport_province": "Sergipe",
        "latitude": "-10.984",
        "longitude": "-37.070333",
        "gmtoffset": "-3",
        "_id": -9012832731255301628
    },
    {
        "iatacode": "UBA",
        "name": "Uberaba",
        "country_code": "BR",
        "city": "Uberaba",
        "airport_province": "Minas Gerais",
        "latitude": "-19.765",
        "longitude": "-47.964778",
        "gmtoffset": "-3",
        "_id": 1877588211517216528
    },
    {
        "iatacode": "BEL",
        "name": "Val De Cans Intl",
        "country_code": "BR",
        "city": "Belém",
        "airport_province": "Pará",
        "latitude": "-1.37925",
        "longitude": "-48.476292",
        "gmtoffset": "-3",
        "_id": 3779990187505924814
    },
    {
        "iatacode": "THE",
        "name": "Senador Petronio Portella",
        "country_code": "BR",
        "city": "Teresina",
        "airport_province": "Piauí",
        "latitude": "-5.059942",
        "longitude": "-42.823478",
        "gmtoffset": "-3",
        "_id": -5353583876518069810
    },
    {
        "iatacode": "NAT",
        "name": "Augusto Severo",
        "country_code": "BR",
        "city": "Natal",
        "airport_province": "Rio Grande do Norte",
        "latitude": "-5.911417",
        "longitude": "-35.247717",
        "gmtoffset": "-3",
        "_id": -1442435149954027965
    },
    {
        "iatacode": "PET",
        "name": "Pelotas",
        "country_code": "BR",
        "city": "Pelotas",
        "airport_province": "Rio Grande do Sul",
        "latitude": "-31.718353",
        "longitude": "-52.327689",
        "gmtoffset": "-3",
        "_id": -1189580620025922819
    },
    {
        "iatacode": "RAO",
        "name": "Leite Lopes",
        "country_code": "BR",
        "city": "Ribeirão Preto",
        "airport_province": "São Paulo",
        "latitude": "-21.134167",
        "longitude": "-47.774189",
        "gmtoffset": "-3",
        "_id": -6950638416571074061
    },
    {
        "iatacode": "RVD",
        "name": "General Leite de Castro Airport",
        "country_code": "BR",
        "city": "Rio Verde",
        "airport_province": "Goiás",
        "latitude": "-17.790278",
        "longitude": "-50.918333",
        "gmtoffset": "-3",
        "_id": -6133459625654679593
    },
    {
        "iatacode": "GVR",
        "name": "Governador Valadares Airport",
        "country_code": "BR",
        "city": "Governador Valadares",
        "airport_province": "Minas Gerais",
        "latitude": "-18.8952",
        "longitude": "-41.9822",
        "gmtoffset": "-3",
        "_id": -628846902697058994
    },
    {
        "iatacode": "IPN",
        "name": "Usiminas",
        "country_code": "BR",
        "city": "Ipatinga",
        "airport_province": "Minas Gerais",
        "latitude": "-19.470722",
        "longitude": "-42.487583",
        "gmtoffset": "-3",
        "_id": 4601634911246293990
    },
    {
        "iatacode": "CXJ",
        "name": "Campo Dos Bugres",
        "country_code": "BR",
        "city": "Caxias do Sul",
        "airport_province": "Rio Grande do Sul",
        "latitude": "-29.197064",
        "longitude": "-51.187536",
        "gmtoffset": "-3",
        "_id": -3077764403202420603
    },
    {
        "iatacode": "GIG",
        "name": "Galeao Antonio Carlos Jobim",
        "country_code": "BR",
        "city": "Rio de Janeiro",
        "airport_province": "Rio de Janeiro",
        "latitude": "-22.808903",
        "longitude": "-43.243647",
        "gmtoffset": "-3",
        "_id": 2966372891700391706
    },
    {
        "iatacode": "FOR",
        "name": "Pinto Martins Intl",
        "country_code": "BR",
        "city": "Fortaleza",
        "airport_province": "Ceará",
        "latitude": "-3.776283",
        "longitude": "-38.532556",
        "gmtoffset": "-3",
        "_id": -7322296134935130156
    },
    {
        "iatacode": "PLU",
        "name": "Pampulha Carlos Drummond De Andrade",
        "country_code": "BR",
        "city": "Belo Horizonte",
        "airport_province": "Minas Gerais",
        "latitude": "-19.851181",
        "longitude": "-43.950628",
        "gmtoffset": "-3",
        "_id": -5351022774079701667
    },
    {
        "iatacode": "PVH",
        "name": "Governador Jorge Teixeira De Oliveira",
        "country_code": "BR",
        "city": "Porto Velho",
        "airport_province": "Rondônia",
        "latitude": "-8.709294",
        "longitude": "-63.902281",
        "gmtoffset": "-4",
        "_id": -63289238152330415
    },
    {
        "iatacode": "GYN",
        "name": "Santa Genoveva",
        "country_code": "BR",
        "city": "Goiânia",
        "airport_province": "Goiás",
        "latitude": "-16.632033",
        "longitude": "-49.220686",
        "gmtoffset": "-3",
        "_id": 6309854171800994744
    },
    {
        "iatacode": "POA",
        "name": "Salgado Filho",
        "country_code": "BR",
        "city": "Porto Alegre",
        "airport_province": "Rio Grande do Sul",
        "latitude": "-29.994428",
        "longitude": "-51.171428",
        "gmtoffset": "-3",
        "_id": -3689175944130997124
    },
    {
        "iatacode": "GRU",
        "name": "Guarulhos Gov Andre Franco Montouro",
        "country_code": "BR",
        "city": "São Paulo",
        "airport_province": "São Paulo",
        "latitude": "-23.432075",
        "longitude": "-46.469511",
        "gmtoffset": "-3",
        "_id": -6014021885951411001
    },
    {
        "iatacode": "IMP",
        "name": "Prefeito Renato Moreira",
        "country_code": "BR",
        "city": "Imperatriz",
        "airport_province": "Maranhão",
        "latitude": "-5.531292",
        "longitude": "-47.46005",
        "gmtoffset": "-3",
        "_id": 600758617603113407
    },
    {
        "iatacode": "IOS",
        "name": "Ilheus",
        "country_code": "BR",
        "city": "Ilhéus",
        "airport_province": "Bahia",
        "latitude": "-14.815964",
        "longitude": "-39.033197",
        "gmtoffset": "-3",
        "_id": -6638123083272759165
    },
    {
        "iatacode": "EIS",
        "name": "Terrance B Lettsome Intl",
        "country_code": "BVI",
        "city": "Road Town",
        "airport_province": "British Virgin Islands",
        "island": "Tortola",
        "latitude": "18.444834",
        "longitude": "-64.542975",
        "gmtoffset": "-4",
        "_id": -5628952668396679374
    },
    {
        "iatacode": "BWN",
        "name": "Brunei Intl",
        "country_code": "BRU",
        "city": "Bandar Seri Begawan",
        "airport_province": "Brunei",
        "island": "Borneo",
        "latitude": "4.9442",
        "longitude": "114.928353",
        "gmtoffset": "8",
        "_id": -5695807136587401247
    },
    {
        "iatacode": "BOJ",
        "name": "Burgas",
        "country_code": "BG",
        "city": "Burgas",
        "airport_province": "Bulgaria",
        "latitude": "42.569583",
        "longitude": "27.515236",
        "gmtoffset": "2",
        "_id": 4985304171777348717
    },
    {
        "iatacode": "VAR",
        "name": "Varna",
        "country_code": "BG",
        "city": "Varna",
        "airport_province": "Bulgaria",
        "latitude": "43.232072",
        "longitude": "27.825106",
        "gmtoffset": "2",
        "_id": 706073081798815968
    },
    {
        "iatacode": "PDV",
        "name": "Plovdiv",
        "country_code": "BG",
        "city": "Plovdiv",
        "airport_province": "Bulgaria",
        "latitude": "42.067806",
        "longitude": "24.850833",
        "gmtoffset": "2",
        "_id": -4012484927459110664
    },
    {
        "iatacode": "SOF",
        "name": "Sofia",
        "country_code": "BG",
        "city": "Sofia",
        "airport_province": "Bulgaria",
        "latitude": "42.695194",
        "longitude": "23.406167",
        "gmtoffset": "2",
        "_id": -6684101089809044203
    },
    {
        "iatacode": "BOY",
        "name": "Bobo Dioulasso",
        "country_code": "BF",
        "city": "Bobo Dioulasso",
        "airport_province": "Burkina Faso",
        "latitude": "11.160056",
        "longitude": "-4.330969",
        "gmtoffset": "0",
        "_id": 3391049303665593157
    },
    {
        "iatacode": "OUA",
        "name": "Ouagadougou",
        "country_code": "BF",
        "city": "Ouagadougou",
        "airport_province": "Burkina Faso",
        "latitude": "12.353194",
        "longitude": "-1.512417",
        "gmtoffset": "0",
        "_id": -7470068227454363087
    },
    {
        "iatacode": "MDL",
        "name": "Mandalay Intl",
        "country_code": "MYA",
        "city": "Mandalay",
        "airport_province": "Mandalay",
        "latitude": "21.702156",
        "longitude": "95.977928",
        "gmtoffset": "6.5",
        "_id": -7938295388652062594
    },
    {
        "iatacode": "RGN",
        "name": "Yangon Intl",
        "country_code": "MYA",
        "city": "Yangon",
        "airport_province": "Yangon",
        "latitude": "16.907305",
        "longitude": "96.133222",
        "gmtoffset": "6.5",
        "_id": 1309304097458722018
    },
    {
        "iatacode": "BJM",
        "name": "Bujumbura Intl",
        "country_code": "BI",
        "city": "Bujumbura",
        "airport_province": "Burundi",
        "latitude": "-3.324019",
        "longitude": "29.318519",
        "gmtoffset": "2",
        "_id": -3263721815743197144
    },
    {
        "iatacode": "PNH",
        "name": "Phnom Penh Intl",
        "country_code": "K",
        "city": "Phnom Penh",
        "airport_province": "Cambodia",
        "latitude": "11.546556",
        "longitude": "104.844139",
        "gmtoffset": "7",
        "_id": 1463529551333133496
    },
    {
        "iatacode": "DLA",
        "name": "Douala",
        "country_code": "CAM",
        "city": "Douala",
        "airport_province": "Littoral",
        "latitude": "4.006081",
        "longitude": "9.719481",
        "gmtoffset": "1",
        "_id": -5661256217667513339
    },
    {
        "iatacode": "NSI",
        "name": "Yaounde Nsimalen",
        "country_code": "CAM",
        "city": "Yaoundé",
        "airport_province": "Centre",
        "latitude": "3.722556",
        "longitude": "11.553269",
        "gmtoffset": "1",
        "_id": 6066190106627562388
    },
    {
        "iatacode": "YQX",
        "name": "Gander Intl",
        "country_code": "CDN",
        "city": "Gander",
        "airport_province": "Newfoundland and Labrador",
        "island": "Newfoundland",
        "latitude": "48.936944",
        "longitude": "-54.568056",
        "gmtoffset": "-4",
        "_id": -4453377449029668942
    },
    {
        "iatacode": "YXY",
        "name": "Whitehorse Intl",
        "country_code": "CDN",
        "city": "Whitehorse",
        "airport_province": "Yukon",
        "latitude": "60.709553",
        "longitude": "-135.067269",
        "gmtoffset": "-8",
        "_id": 9023549370646648902
    },
    {
        "iatacode": "YFB",
        "name": "Iqaluit",
        "country_code": "CDN",
        "city": "Iqaluit",
        "airport_province": "Nunavut",
        "island": "Baffin Island",
        "latitude": "63.75639",
        "longitude": "-68.555832",
        "gmtoffset": "-5",
        "_id": -5696029155322585104
    },
    {
        "iatacode": "YYT",
        "name": "St Johns Intl",
        "country_code": "CDN",
        "city": "St. John's",
        "airport_province": "Newfoundland and Labrador",
        "island": "Newfoundland",
        "latitude": "47.61861",
        "longitude": "-52.751945",
        "gmtoffset": "-3.5",
        "_id": -4221093075012354256
    },
    {
        "iatacode": "YYZ",
        "name": "Lester B Pearson Intl",
        "country_code": "CDN",
        "city": "Toronto",
        "airport_province": "Ontario",
        "latitude": "43.677223",
        "longitude": "-79.630556",
        "gmtoffset": "-5",
        "_id": 6078449304815936150
    },
    {
        "iatacode": "YYC",
        "name": "Calgary Intl",
        "country_code": "CDN",
        "city": "Calgary",
        "airport_province": "Alberta",
        "latitude": "51.113888",
        "longitude": "-114.020278",
        "gmtoffset": "-7",
        "_id": 8489179543269367733
    },
    {
        "iatacode": "YYJ",
        "name": "Victoria Intl",
        "country_code": "CDN",
        "city": "Victoria",
        "airport_province": "British Columbia",
        "island": "Vancouver Island",
        "latitude": "48.646944",
        "longitude": "-123.425833",
        "gmtoffset": "-8",
        "_id": -2516599599756191513
    },
    {
        "iatacode": "YXU",
        "name": "London",
        "country_code": "CDN",
        "city": "London",
        "airport_province": "Ontario",
        "latitude": "43.033056",
        "longitude": "-81.151111",
        "gmtoffset": "-5",
        "_id": -623414255884596680
    },
    {
        "iatacode": "YXE",
        "name": "Saskatoon J G Diefenbaker Intl",
        "country_code": "CDN",
        "city": "Saskatoon",
        "airport_province": "Saskatchewan",
        "latitude": "52.170834",
        "longitude": "-106.699722",
        "gmtoffset": "-6",
        "_id": -2437373294000453959
    },
    {
        "iatacode": "YZF",
        "name": "Yellowknife",
        "country_code": "CDN",
        "city": "Yellowknife",
        "airport_province": "Northwest Territories",
        "latitude": "62.462778",
        "longitude": "-114.440278",
        "gmtoffset": "-7",
        "_id": -7134512044055143988
    },
    {
        "iatacode": "YQB",
        "name": "Quebec Jean Lesage Intl",
        "country_code": "CDN",
        "city": "Quebec",
        "airport_province": "Quebec",
        "latitude": "46.791111",
        "longitude": "-71.393333",
        "gmtoffset": "-5",
        "_id": -4497364997625741023
    },
    {
        "iatacode": "YQT",
        "name": "Thunder Bay",
        "country_code": "CDN",
        "city": "Thunder Bay",
        "airport_province": "Ontario",
        "latitude": "48.371944",
        "longitude": "-89.323889",
        "gmtoffset": "-5",
        "_id": -3858181943898368152
    },
    {
        "iatacode": "YQR",
        "name": "Regina Intl",
        "country_code": "CDN",
        "city": "Regina",
        "airport_province": "Saskatchewan",
        "latitude": "50.431944",
        "longitude": "-104.665833",
        "gmtoffset": "-6",
        "_id": -8086106459692581292
    },
    {
        "iatacode": "YOW",
        "name": "Ottawa Macdonald Cartier Intl",
        "country_code": "CDN",
        "city": "Ottawa",
        "airport_province": "Ontario",
        "latitude": "45.3225",
        "longitude": "-75.669167",
        "gmtoffset": "-5",
        "_id": -2084407419239439867
    },
    {
        "iatacode": "YUL",
        "name": "Pierre Elliott Trudeau Intl",
        "country_code": "CDN",
        "city": "Montréal",
        "airport_province": "Quebec",
        "latitude": "45.470556",
        "longitude": "-73.740833",
        "gmtoffset": "-5",
        "_id": -7728730302614737021
    },
    {
        "iatacode": "YTZ",
        "name": "City Centre",
        "country_code": "CDN",
        "city": "Toronto",
        "airport_province": "Ontario",
        "latitude": "43.627499",
        "longitude": "-79.396167",
        "gmtoffset": "-5",
        "_id": 5013266761364066136
    },
    {
        "iatacode": "YWG",
        "name": "Winnipeg Intl",
        "country_code": "CDN",
        "city": "Winnipeg",
        "airport_province": "Manitoba",
        "latitude": "49.910036",
        "longitude": "-97.239886",
        "gmtoffset": "-6",
        "_id": 2520942247939885773
    },
    {
        "iatacode": "YVR",
        "name": "Vancouver Intl",
        "country_code": "CDN",
        "city": "Vancouver",
        "airport_province": "British Columbia",
        "latitude": "49.193889",
        "longitude": "-123.184444",
        "gmtoffset": "-8",
        "_id": 3313586954687137626
    },
    {
        "iatacode": "YHM",
        "name": "Hamilton",
        "country_code": "CDN",
        "city": "Hamilton",
        "airport_province": "Ontario",
        "latitude": "43.173611",
        "longitude": "-79.935",
        "gmtoffset": "-5",
        "_id": -8287260057333320242
    },
    {
        "iatacode": "YHZ",
        "name": "Halifax Intl",
        "country_code": "CDN",
        "city": "Halifax",
        "airport_province": "Nova Scotia",
        "latitude": "44.880833",
        "longitude": "-63.50861",
        "gmtoffset": "-4",
        "_id": 8617694997635232728
    },
    {
        "iatacode": "YEG",
        "name": "Edmonton Intl",
        "country_code": "CDN",
        "city": "Edmonton",
        "airport_province": "Alberta",
        "latitude": "53.309723",
        "longitude": "-113.579722",
        "gmtoffset": "-7",
        "_id": -795765378402765467
    },
    {
        "iatacode": "RAI",
        "name": "Praia International Airport",
        "country_code": "CV",
        "city": "Praia",
        "airport_province": "Cape Verde",
        "island": "Santiago",
        "latitude": "14.9245",
        "longitude": "-23.4935",
        "gmtoffset": "-1",
        "_id": -1965329797910875278
    },
    {
        "iatacode": "LYB",
        "name": "Edward Bodden Airfield",
        "country_code": "CAYM",
        "island": "Little Cayman",
        "latitude": "19.6591666667",
        "longitude": "-80.09083333",
        "gmtoffset": "-5",
        "_id": 1482682420368250738
    },
    {
        "iatacode": "GCM",
        "name": "Owen Roberts Intl",
        "country_code": "CAYM",
        "city": "George Town",
        "airport_province": "Cayman Islands",
        "island": "Grand Cayman",
        "latitude": "19.292778",
        "longitude": "-81.35775",
        "gmtoffset": "-5",
        "_id": -5280656847675745097
    },
    {
        "iatacode": "CYB",
        "name": "Gerrard Smith Intl",
        "country_code": "CAYM",
        "island": "Cayman Brac",
        "latitude": "19.686981",
        "longitude": "-79.882789",
        "gmtoffset": "-5",
        "_id": 7767585993731235820
    },
    {
        "iatacode": "BGF",
        "name": "Bangui M Poko",
        "country_code": "RCA",
        "city": "Bangui",
        "airport_province": "Central African Republic",
        "latitude": "4.398475",
        "longitude": "18.518786",
        "gmtoffset": "1",
        "_id": 1198058468252552107
    },
    {
        "iatacode": "NDJ",
        "name": "Ndjamena Hassan Djamous",
        "country_code": "TCH",
        "city": "N'Djamena",
        "airport_province": "Chad",
        "latitude": "12.133689",
        "longitude": "15.034019",
        "gmtoffset": "1",
        "_id": 9165264341505891132
    },
    {
        "iatacode": "ANF",
        "name": "Cerro Moreno Intl",
        "country_code": "RCH",
        "city": "Antofagasta",
        "airport_province": "Antofagasta",
        "latitude": "-23.444478",
        "longitude": "-70.4451",
        "gmtoffset": "-4",
        "_id": 7913688471132778547
    },
    {
        "iatacode": "ZAL",
        "name": "Pichoy",
        "country_code": "RCH",
        "city": "Valdivia",
        "airport_province": "Ríos",
        "latitude": "-39.649956",
        "longitude": "-73.086111",
        "gmtoffset": "-4",
        "_id": -7434787856149889539
    },
    {
        "iatacode": "LSC",
        "name": "La Florida",
        "country_code": "RCH",
        "city": "La Serena",
        "airport_province": "Coquimbo",
        "latitude": "-29.916233",
        "longitude": "-71.199522",
        "gmtoffset": "-4",
        "_id": 74408777359949862
    },
    {
        "iatacode": "CPO",
        "name": "Copiapo",
        "country_code": "RCH",
        "city": "Copiapó",
        "airport_province": "Atacama",
        "latitude": "-27",
        "longitude": "-70",
        "gmtoffset": "-4",
        "_id": 5470336665682648483
    },
    {
        "iatacode": "CCP",
        "name": "Carriel Sur Intl",
        "country_code": "RCH",
        "city": "Concepción",
        "airport_province": "Bío-Bío",
        "latitude": "-36.77265",
        "longitude": "-73.063106",
        "gmtoffset": "-4",
        "_id": -520071931049946279
    },
    {
        "iatacode": "ZCO",
        "name": "Maquehue",
        "country_code": "RCH",
        "city": "Temuco",
        "airport_province": "Araucanía",
        "latitude": "-38.766819",
        "longitude": "-72.637097",
        "gmtoffset": "-4",
        "_id": 8832277489419329788
    },
    {
        "iatacode": "SCL",
        "name": "Arturo Merino Benitez Intl",
        "country_code": "RCH",
        "city": "Santiago",
        "airport_province": "Santiago",
        "latitude": "-33.392975",
        "longitude": "-70.785803",
        "gmtoffset": "-4",
        "_id": 985366542507554702
    },
    {
        "iatacode": "IQQ",
        "name": "Diego Aracena Intl",
        "country_code": "RCH",
        "city": "Iquique",
        "airport_province": "Tarapacá",
        "latitude": "-20.535222",
        "longitude": "-70.181275",
        "gmtoffset": "-4",
        "_id": -5139621446551131490
    },
    {
        "iatacode": "ARI",
        "name": "Chacalluta",
        "country_code": "RCH",
        "city": "Arica",
        "airport_province": "Arica y Parinacota",
        "latitude": "-18.348531",
        "longitude": "-70.338742",
        "gmtoffset": "-4",
        "_id": -926901893387668115
    },
    {
        "iatacode": "PMC",
        "name": "El Tepual Intl",
        "country_code": "RCH",
        "city": "Puerto Montt",
        "airport_province": "Lagos",
        "latitude": "-41.438886",
        "longitude": "-73.093953",
        "gmtoffset": "-4",
        "_id": 7164169116158504707
    },
    {
        "iatacode": "PUQ",
        "name": "Carlos Ibanez Del Campo Intl",
        "country_code": "RCH",
        "city": "Punta Arenas",
        "airport_province": "Magallanes",
        "latitude": "-53.002642",
        "longitude": "-70.854586",
        "gmtoffset": "-4",
        "_id": -1108689408696780425
    },
    {
        "iatacode": "HGH",
        "name": "Xiaoshan",
        "country_code": "CN",
        "city": "Hangzhou",
        "airport_province": "Zhejiang",
        "latitude": "30.229503",
        "longitude": "120.434453",
        "gmtoffset": "8",
        "_id": -760703732582276182
    },
    {
        "iatacode": "XMN",
        "name": "Gaoqi",
        "country_code": "CN",
        "city": "Xiamen",
        "airport_province": "Fujian",
        "latitude": "24.544036",
        "longitude": "118.127739",
        "gmtoffset": "8",
        "_id": -1306998983325749306
    },
    {
        "iatacode": "HLD",
        "name": "Dongshan",
        "country_code": "CN",
        "city": "Hailar",
        "airport_province": "Nei Mongol",
        "latitude": "49.204997",
        "longitude": "119.825",
        "gmtoffset": "8",
        "_id": 3350355520371001192
    },
    {
        "iatacode": "XFN",
        "name": "Xiangfan Airport",
        "country_code": "CN",
        "city": "Xiangyang",
        "airport_province": "Hubei",
        "latitude": "32.1506",
        "longitude": "112.291",
        "gmtoffset": "8",
        "_id": -2583303955782698221
    },
    {
        "iatacode": "XIC",
        "name": "Qingshan",
        "country_code": "CN",
        "city": "Xichang",
        "airport_province": "Sichuan",
        "latitude": "27.989083",
        "longitude": "102.184361",
        "gmtoffset": "8",
        "_id": 6823104501807768257
    },
    {
        "iatacode": "HAK",
        "name": "Meilan",
        "country_code": "CN",
        "city": "Haikou",
        "airport_province": "Hainan",
        "island": "Hainan",
        "latitude": "19.934856",
        "longitude": "110.458961",
        "gmtoffset": "8",
        "_id": -4139117725704714038
    },
    {
        "iatacode": "HET",
        "name": "Baita Airport",
        "country_code": "CN",
        "city": "Hohhot",
        "airport_province": "Nei Mongol",
        "latitude": "40.851422",
        "longitude": "111.824103",
        "gmtoffset": "8",
        "_id": -150794183291371223
    },
    {
        "iatacode": "PEK",
        "name": "Capital Intl",
        "country_code": "CN",
        "city": "Beijing",
        "airport_province": "Beijing",
        "latitude": "40.080111",
        "longitude": "116.584556",
        "gmtoffset": "8",
        "_id": 3423609870316706424
    },
    {
        "iatacode": "PVG",
        "name": "Pudong",
        "country_code": "CN",
        "city": "Shanghai",
        "airport_province": "Shanghai",
        "latitude": "31.143378",
        "longitude": "121.805214",
        "gmtoffset": "8",
        "_id": -584611309490273899
    },
    {
        "iatacode": "NGB",
        "name": "Ningbo Lishe",
        "country_code": "CN",
        "city": "Ningbo",
        "airport_province": "Zhejiang",
        "latitude": "29.82",
        "longitude": "121.46",
        "gmtoffset": "8",
        "_id": 8579043382555002597
    },
    {
        "iatacode": "WXN",
        "name": "Wanzhou Wuqiao Airport",
        "country_code": "CN",
        "city": "Wanxian",
        "airport_province": "Sichuan",
        "latitude": "30.8361",
        "longitude": "108.406",
        "gmtoffset": "8",
        "_id": 5847944574819438006
    },
    {
        "iatacode": "WUH",
        "name": "Tianhe",
        "country_code": "CN",
        "city": "Wuhan",
        "airport_province": "Hubei",
        "latitude": "30.783758",
        "longitude": "114.2081",
        "gmtoffset": "8",
        "_id": -8274509834464585468
    },
    {
        "iatacode": "WUX",
        "name": "Wuxi Airport",
        "country_code": "CN",
        "city": "Wuxi",
        "airport_province": "Jiangsu",
        "latitude": "31.4944",
        "longitude": "120.429",
        "gmtoffset": "8",
        "_id": 2939472290381299153
    },
    {
        "iatacode": "FOC",
        "name": "Fuzhou Changle",
        "country_code": "CN",
        "city": "Fuzhou",
        "airport_province": "Fujian",
        "latitude": "25.93",
        "longitude": "119.65",
        "gmtoffset": "8",
        "_id": 7477817291082316869
    },
    {
        "iatacode": "WNZ",
        "name": "Wenzhou Longwan Airport",
        "country_code": "CN",
        "city": "Wenzhou",
        "airport_province": "Zhejiang",
        "latitude": "27.9122",
        "longitude": "120.852",
        "gmtoffset": "8",
        "_id": -6754626505197127160
    },
    {
        "iatacode": "INC",
        "name": "Yinchuan",
        "country_code": "CN",
        "city": "Yinchuan",
        "airport_province": "Ningxia",
        "latitude": "38.481944",
        "longitude": "106.009167",
        "gmtoffset": "8",
        "_id": 5703564761210361913
    },
    {
        "iatacode": "ZUH",
        "name": "Zhuhai Airport",
        "country_code": "CN",
        "city": "Zhuhai",
        "airport_province": "Guangdong",
        "latitude": "22.0064",
        "longitude": "113.376",
        "gmtoffset": "8",
        "_id": 53404178840879106
    },
    {
        "iatacode": "HRB",
        "name": "Taiping",
        "country_code": "CN",
        "city": "Harbin",
        "airport_province": "Heilongjiang",
        "latitude": "45.623403",
        "longitude": "126.250328",
        "gmtoffset": "8",
        "_id": -1934432184850221116
    },
    {
        "iatacode": "JMU",
        "name": "Jiamusi Airport",
        "country_code": "CN",
        "city": "Jiamusi",
        "airport_province": "Heilongjiang",
        "latitude": "46.843394",
        "longitude": "130.465389",
        "gmtoffset": "8",
        "_id": 2772094506555290413
    },
    {
        "iatacode": "CGQ",
        "name": "Changchun",
        "country_code": "CN",
        "city": "Changchun",
        "airport_province": "Jilin",
        "latitude": "43.5412",
        "longitude": "125.1201",
        "gmtoffset": "8",
        "_id": -8488158076113725052
    },
    {
        "iatacode": "CGO",
        "name": "Xinzheng",
        "country_code": "CN",
        "city": "Zhengzhou",
        "airport_province": "Henan",
        "latitude": "34.519672",
        "longitude": "113.840889",
        "gmtoffset": "8",
        "_id": -7016194665878377395
    },
    {
        "iatacode": "LHW",
        "name": "Lanzhou Airport",
        "country_code": "CN",
        "city": "Lanzhou",
        "airport_province": "Gansu",
        "latitude": "36.117",
        "longitude": "103.617",
        "gmtoffset": "8",
        "_id": 6624065760463116988
    },
    {
        "iatacode": "SJW",
        "name": "Shijiazhuang Daguocun International Airport",
        "country_code": "CN",
        "city": "Shijiazhuang",
        "airport_province": "Hebei",
        "latitude": "38.280686",
        "longitude": "114.6973",
        "gmtoffset": "8",
        "_id": -5113156495706323263
    },
    {
        "iatacode": "CKG",
        "name": "Jiangbei",
        "country_code": "CN",
        "city": "Chongqing",
        "airport_province": "Chongqing",
        "latitude": "29.719217",
        "longitude": "106.641678",
        "gmtoffset": "8",
        "_id": 3345664374142491221
    },
    {
        "iatacode": "CSX",
        "name": "Huanghua",
        "country_code": "CN",
        "city": "Changsha",
        "airport_province": "Hunan",
        "latitude": "28.189158",
        "longitude": "113.219633",
        "gmtoffset": "8",
        "_id": -8472810220304801797
    },
    {
        "iatacode": "BHY",
        "name": "Beihai Airport",
        "country_code": "CN",
        "city": "Beihai",
        "airport_province": "Guangxi",
        "latitude": "21.5394",
        "longitude": "109.294",
        "gmtoffset": "8",
        "_id": 3628395459419228382
    },
    {
        "iatacode": "TGO",
        "name": "Tongliao Airport",
        "country_code": "CN",
        "city": "Tongliao",
        "airport_province": "Nei Mongol",
        "latitude": "43.5567",
        "longitude": "122.2",
        "gmtoffset": "8",
        "_id": -2108792813929173251
    },